地址,行政区,街道,总户数,lng,lat
馨佳园十一街坊,宝山,顾村,15000,121.37418317084772,31.365288567924715
馨佳园九街坊,宝山,顾村,15000,121.37322674497125,31.368093009822804
浦江世博家园七街坊,闵行,浦江镇,8900,121.51295008229873,31.08401365576279
浦江世博家园十三街坊,闵行,浦江镇,8900,121.51424040833327,31.078891381394488
凤城三村,杨浦,控江,5922,121.5282979912589,31.28782287004112
曹杨五村,普陀,曹杨,5735,121.41453164079499,31.240215995928857
淞南五村,宝山,淞南,5528,121.49163742475228,31.34488479304042
城东新村,青浦,青浦城区,5405,121.33840213526592,31.835599975365863
殷行一村,杨浦,中原,5212,121.54906510786911,31.33217416545606
瑞和城九街区(鲁康路555弄),闵行,浦江镇,5179,121.52303428029263,31.032781464742207
西凌新,黄浦,蓬莱公园,4811,121.49307516272101,31.21097168820248
民乐佳苑,青浦,青浦城区,4671,121.09827914363245,31.163428205407943
合景峰汇,嘉定,嘉定新城,4173,121.26498748864911,31.350036943594294
控江四村,杨浦,控江,4063,121.53155497754642,31.290911920976683
金沁苑,浦东,航头,4058,121.60614784167012,31.087479454735107
龙湖北城天街,宝山,顾村,4004,121.3661567212855,31.367670367907404
浦江宝邸(江文路330弄),闵行,浦江镇,3844,121.5472990392365,31.07115273833139
曹杨八村,普陀,真如,3771,121.41154702073808,31.25292888689595
万科四季花城(公寓),宝山,杨行,3769,121.44948740310475,31.387961642164175
共富二村,宝山,共富,3768,121.43808296550284,31.35455387107869
外冈新苑,嘉定,嘉定北部,3715,121.16900480253568,31.370644468238677
曹杨三村,普陀,曹杨,3633,121.41043914055263,31.244599850859647
三湘四季花城,松江,松江大学城,3539,121.23562942729423,31.0615726758645
天馨花园(公寓),宝山,杨行,3429,121.44495024163496,31.371026706927623
共富一村,宝山,共富,3414,121.43647859186201,31.35861521045371
日晖六村,徐汇,大木桥,3385,121.46622103814462,31.201232983658134
万达广场(嘉定),嘉定,江桥,3381,121.33011185337544,31.24630738068734
保利西子湾,松江,松江大学城,3357,121.2413120181198,31.066802840773015
天钥新村,徐汇,万体馆,3357,121.44078120576314,31.17775556614847
康泰新城,宝山,大华,3315,121.41118401548151,31.288471840748173
美岸栖庭(公寓),宝山,高境,3312,121.498880911232,31.333628559754278
丰庄十四街坊,嘉定,丰庄,3283,121.36190028028757,31.254349169879642
万荣小区,静安,阳城,3236,121.43932109998724,31.235280169707643
蓝天新村,松江,松江老城,3230,121.25918416556301,31.019182334529297
控江五村,杨浦,控江,3223,121.53661728841736,31.29349226207843
真如西村,普陀,真如,3182,121.40580693835987,31.252311620846957
永泰花苑,浦东,三林,3126,121.52400220447963,31.14369063907894
美罗家园金丰苑,宝山,罗店,3112,121.34041595655819,31.39867892312944
瑞和新苑(浦涛路400弄),闵行,浦江镇,3068,121.54423366151426,31.056129537644587
淞南七村,宝山,淞南,3004,121.48671498004927,31.33889290564958
浦润苑,闵行,浦江镇,3000,121.53919225768,31.04823487984977
东安一村,徐汇,大木桥,2952,121.4637655200331,31.195351033168695
宜达新居,青浦,青浦城区,2949,121.15558851991362,31.169113481648598
罗阳七村,闵行,梅陇春申,2945,121.40633460301645,31.12901263811015
新理想花园,松江,松江老城,2943,121.2045660227592,31.02474288053761
中虹浦江苑(浦涛路75弄),闵行,浦江镇,2927,121.55103006134165,31.054926207598992
万业紫辰苑,宝山,杨行,2920,121.44469898558383,31.405662080085595
江南星城一期(顾戴路1199弄),闵行,古美罗阳,2917,121.39431931766772,31.14414311552845
长白三村,杨浦,黄兴公园,2911,121.54556126722746,31.29484111147227
中信泰富又一城,嘉定,嘉定新城,2828,121.25965595561685,31.33604185882427
东安二村,徐汇,大木桥,2812,121.45997781485028,31.19283107711445
爱庐世纪新苑,闵行,颛桥,2812,121.427622826653,31.08556484215027
品尊国际,普陀,真如,2788,121.4270250043361,31.262958850334574
泰安公寓一期（石家浜路150弄）,青浦,朱家角,2784,121.04176800162745,31.13392207117111
友谊家园,宝山,杨行,2749,121.45900962117163,31.40209478472644
聚丰景都,宝山,上大,2744,121.38135991322802,31.31850555954816
阳光威尼斯三期,普陀,桃浦,2744,121.37324012972334,31.26640276279896
红馥里,虹口,江杨南路251号,2740,121.47669402276325,31.31902984095549
凤城二村,杨浦,控江,2726,121.52513433891386,31.284134020032397
中国铁建青秀城,宝山,顾村,2689,121.4041346528225,31.366990729782934
龙柏二村,闵行,金汇龙柏,2658,121.36833619011382,31.188788008886583
真源小区,普陀,长征,2628,121.38746524662659,31.24556804408995
海尚明城,宝山,杨行,2601,121.4542539918018,31.400476870170724
四季绿城,宝山,淞南,2587,121.48381830410179,31.336407892624315
共富四村,宝山,共富,2570,121.4312831521145,31.35629253949364
莱顿小城,松江,松江大学城,2566,121.23983987505004,31.03889753670978
新城金郡,嘉定,嘉定新城,2560,121.24698796148459,31.351178897584138
杨泰二村,宝山,杨行,2554,121.44776175822008,31.375984336895428
象源丽都,普陀,长征,2553,121.38408896536734,31.24357082582877
金地褐石苑,松江,泗泾,2544,121.26107096645617,31.119480820425785
和家欣苑B区（ 红林路576弄）,宝山,杨行,2538,121.42523504077693,31.370697884628964
潼港八村,浦东,高桥,2473,121.57594420533869,31.35436799900531
金沙雅苑四五期,普陀,长征,2470,121.37622295316922,31.245836487472374
龙山新村,徐汇,万体馆,2444,121.44078120576314,31.17775556614847
车站新村(普陀),普陀,真如,2442,121.40905000091199,31.253538585543858
汇丰凯苑,嘉定,嘉定城区,2422,121.23403852823604,31.3932152100007
凌云新村,徐汇,华东理工,2414,121.42488101857545,31.145795841406223
延吉七村,杨浦,控江,2395,121.53947785248333,31.296751607370542
乐业五村,宝山,月浦,2385,121.43197475752663,31.42417033531704
佳境苑,宝山,罗店,2382,121.34407493456143,31.398294486362094
桂巷大楼,普陀,曹杨,2380,121.40356934916508,31.254973368279597
汇秀景苑一街坊,闵行,浦江镇,2378,121.5486405686851,31.04935754142594
汇枫景苑,宝山,上大,2376,121.37745614697333,31.328404324679042
世华锦城,浦东,三林,2340,121.50679704887757,31.16705994063759
莲花公寓(普陀),普陀,桃浦,2335,121.40710741524667,31.290869336418552
青浦万达茂,青浦,青浦城区,2332,121.09167507101475,31.140424955450314
保利海上五月花(公寓),嘉定,嘉定城区,2328,121.26280209100445,31.41125858287533
UNICITY万科天空之城,青浦,徐泾,2299,121.25765498009336,31.181272822971856
曹杨五村(南杨园),普陀,曹杨,2297,121.41247299405778,31.238847832358434
合生江湾国际公寓,杨浦,新江湾城,2297,121.52160471690405,31.343776224236436
维罗纳贵都,松江,松江老城,2283,121.21118258182348,31.024229484553324
金巷小区,浦东,金桥,2283,121.60622913831878,31.26444418771261
南方新村,闵行,古美罗阳,2282,121.40638796236372,31.141817891894895
中环和润苑,杨浦,黄兴公园,2279,121.56193486141892,31.288589105539728
月浦八村,宝山,月浦,2244,121.43187324900401,31.421601779504893
外冈景苑,嘉定,嘉定北部,2238,121.16403160357136,31.375983951517792
嘉利明珠城,静安,闸北公园,2235,121.47028703837445,31.279459909528917
钰丰商都,松江,泗泾,2227,121.2931142426415,31.12588485619854
金桥新城,浦东,金桥,2225,121.63337305625268,31.321683748620377
爱博三村,闵行,华漕,2206,121.31683480810742,31.217996859454004
绿地时代名邸,青浦,白鹤,2203,121.14853601318534,31.28246760943393
东陆新村六街坊,浦东,金桥,2179,121.60329644032035,31.284705942514908
金桥新村一街坊,浦东,金桥,2160,121.60602405517085,31.273292290247074
宝祁雅苑(北区),嘉定,上大,2144,121.27259505835202,31.3801553396772
虹浦新城(浦涛路510弄),闵行,浦江镇,2136,121.54190983499049,31.053990772024378
水语人家北苑,闵行,浦江镇,2136,121.5387645979084,31.05391745266331
何家宅小区,虹口,广中,2122,121.48317017667634,31.279232300868173
新梅花苑,闵行,古美罗阳,2121,121.39366238684829,31.13097968779428
逸仙一村,宝山,高境,2120,121.49571501312317,31.32045289766444
新天地荻泾花园,宝山,顾村,2101,121.39212987764824,31.36012562086551
金色西郊城,闵行,华漕,2084,121.33813641649607,31.231890150460732
杨泰三村,宝山,杨行,2078,121.44508687390304,31.38658724405351
沁富佳苑,嘉定,安亭,2069,121.16049120189543,31.31461585164532
清水颐园,嘉定,嘉定城区,2066,121.244815948592,31.37511800393996
胜悦嘉苑,嘉定,嘉定北部,2064,121.23152039823049,31.377276730352968
长岛公寓,浦东,金桥,2058,121.60755297114882,31.268836860756196
泾东小区,浦东,洋泾,2056,121.56376129618181,31.250888451284617
控江西三村,杨浦,控江,2051,121.53801945348789,31.291062895422108
宝林二村,宝山,淞宝,2039,121.49418546833134,31.406535910570742
滨江小区,徐汇,植物园,2036,121.46356025722407,31.158718474443422
三星苑,松江,松江老城,2033,121.25695600857607,31.016892862095013
日月光伯爵天地,嘉定,嘉定城区,2030,121.24511301822416,31.39714186004231
华亭新家百合苑,松江,松江老城,2022,121.19287340874966,31.03220614802089
绿地蔷薇九里(公寓),松江,松江大学城,2009,121.23648353617313,31.0672587805851
金谊河畔,浦东,三林,2009,121.52226604942051,31.146800211656387
延长小区(闸北),静安,大宁,2007,121.45829115642475,31.27587404420741
鸿宝一村(北区),奉贤,西渡,2002,121.43533702521994,30.99998784061148
文晋苑,松江,小昆山,2002,121.13390872490525,31.034842504022127
上海豪都国际花园(公寓),青浦,沪青平,2000,121.28308502094478,31.16947182705433
丰宝苑,宝山,上大,2000,121.4965630135246,31.41027947347614
城市名园,杨浦,中原,2000,121.54556737570492,31.337048814576374
卓越时代广场,宝山,共康,2000,121.44207638264743,31.344594968877065
大众春盛苑,嘉定,安亭,1996,121.21394594923328,31.277392893911518
高行绿洲六期,浦东,高行,1988,121.59828775828836,31.329012836514185
祁连二村,宝山,上大,1987,121.38412399928224,31.320696909759338
祥和家园,普陀,长征,1986,121.3863809020455,31.25276573395044
和平小区(徐汇),徐汇,华东理工,1986,121.43703500229489,31.13888688296597
浦江馨都,闵行,浦江镇,1984,121.53805942808307,31.046272745438216
东二小区,浦东,金桥,1976,121.54876534332044,31.25208726469772
东方悦居,浦东,三林,1969,121.5110362424097,31.170696478944357
平吉一村,闵行,古美罗阳,1965,121.41390094049643,31.139946498224127
荷五小区,浦东,金桥,1956,121.63337305625268,31.321683748620377
龙湖新壹城,松江,松江大学城,1954,121.24382242269797,31.059344710008887
宝林一村,宝山,淞宝,1951,121.5097829265622,31.40154207554871
盛大花园,徐汇,徐汇滨江,1948,121.46088097121,31.18401189438163
真光二街坊,普陀,桃浦,1944,121.39407003788871,31.260310835268434
水塘小区,普陀,真如,1927,121.40610481646699,31.255266557953828
嘉隆国际,嘉定,嘉定新城,1927,121.20892738584068,31.421201952928207
新天地荻泾花园(公寓),宝山,顾村,1920,121.39212987764824,31.36012562086551
长风二村风荷苑,普陀,长征,1920,121.40423732914229,31.239133276542763
财大小区,杨浦,五角场,1919,121.51324194175892,31.31119091721312
上缝小区,徐汇,龙华,1905,121.45277403347411,31.178725841092167
柳营路319弄,静安,闸北公园,1895,121.46987678224804,31.273721070046967
绿地海域苏河源,嘉定,安亭,1887,121.16472401745844,31.28448189559798
公园3000,杨浦,黄兴公园,1884,121.53061579913575,31.297570456494846
东陆新村二街坊,浦东,金桥,1884,121.605944195811,31.278675081663074
美罗家园润苑,宝山,罗店,1880,121.3407048516102,31.405784205728917
龙湖春江天玺,奉贤,南桥,1879,121.51832203907894,30.97577488070504
华亭新家银杏苑,松江,松江老城,1860,121.19287340874966,31.03220614802089
大学里,嘉定,安亭,1859,121.17049024052699,31.300022409592273
佳龙花园,杨浦,黄兴公园,1851,121.54310467114932,31.30306408103321
丰水宝邸西苑,宝山,顾村,1845,121.39908096568446,31.36214886790718
紫东新苑,松江,松江新城,1842,121.21491234630092,31.047409281325514
博学家园,浦东,三林,1831,121.52534867460855,31.16276546595908
双桥小区,浦东,金桥,1824,121.60262747220706,31.291313541777722
好日子大家园D区,宝山,顾村,1821,121.35912703151719,31.35362088358122
真光九街坊,普陀,桃浦,1821,121.3922784573796,31.25494334696334
真光八街坊,普陀,桃浦,1821,121.39519857910089,31.264332294353807
宝华北岸郡庭(公寓),宝山,月浦,1812,121.40268631484876,31.45779035329325
御上海,松江,松江大学城,1805,121.24182360310773,31.054880731491508
延吉四村,杨浦,黄兴公园,1795,121.54467958036942,31.299251408192998
上海派,嘉定,安亭,1784,121.20482177033787,31.298988440876148
真光四街坊,普陀,桃浦,1784,121.39688558860219,31.251703610846153
嘉利坊,嘉定,丰庄,1782,121.38641297155222,31.26103986875836
玉乐小区,松江,松江老城,1776,121.20585140811342,31.02100197325701
铁路新村(杨浦),杨浦,五角场,1770,121.52225167653233,31.304744779497238
上南三村,浦东,南码头,1762,121.52337985842233,31.19244625483946
美罗家园佳翔苑,宝山,罗店,1760,121.34396614976419,31.406852817524108
佳兆业君汇上品,青浦,重固,1752,121.19979404422908,31.202877831221763
呼玛四村,宝山,共康,1752,121.452469957059,31.349510369490794
碧桂园凤凰城,金山,山阳,1748,121.36708512003007,30.729599068482113
朱家门小区,浦东,金桥,1736,121.58722818017172,31.282702153952755
通波小区,松江,松江老城,1716,121.19363382436386,31.008425331520485
阳光星期8,奉贤,南桥,1691,121.48941636437887,30.925222121129657
新江湾城时代花园,杨浦,新江湾城,1687,121.5137219063929,31.334224622754228
大唐花园,宝山,顾村,1679,121.40745335269855,31.349432501032457
昌鑫花园(公寓),松江,松江新城,1676,121.20882300274042,31.029400838859786
现代星洲城一二期,杨浦,江浦路,1663,121.52605303595891,31.27452584668592
庆安苑,宝山,月浦,1659,121.44288503726753,31.41235887441239
祥和名邸(公寓),普陀,长征,1658,121.38276396474012,31.24817302379178
浣纱三村,杨浦,黄兴公园,1656,121.54221768428876,31.307219066741858
东一小区,浦东,金桥,1650,121.63337305625268,31.321683748620377
祁连一村,宝山,上大,1650,121.38717096174153,31.318992899187652
好日子大家园C区,宝山,顾村,1641,121.36329975044158,31.355408677396575
聚缘北庭,闵行,浦江镇,1640,121.55148810732119,31.051631917261066
采菊苑,宝山,顾村,1637,121.37320150258641,31.35561775220629
韵都城,杨浦,黄兴公园,1624,121.55217243645869,31.295116047555823
李园一村,嘉定,嘉定城区,1623,121.26134297336459,31.396666873357226
美罗家园年吉苑,宝山,罗店,1620,121.35269498440462,31.408543894271126
珠江新城,松江,松江新城,1616,121.21588057189635,31.039211289398555
骏苑,闵行,江川,1612,121.38861193361008,31.118842580087428
新顾村大家园A区,宝山,顾村,1610,121.36815194765373,31.3551874214635
宝祁雅苑,宝山,上大,1604,121.37941400383232,31.32514091843362
水语人家南苑,闵行,浦江镇,1600,121.53868878092337,31.05111580597933
华亭公寓,松江,松江新城,1600,121.19206394565462,31.034591635642954
世纪新城,松江,松江新城,1595,121.21091865966466,31.047512848192305
中海臻如府,普陀,真如,1582,121.41910069211038,31.25631683160565
宝沁苑,宝山,顾村,1576,121.38191273043887,31.363448237086747
保利叶之林,宝山,上大,1575,121.38438468754123,31.330948542458387
浦江丽都(浦连路439弄),闵行,浦江镇,1574,121.54362685614225,31.060319920403895
大运盛城,杨浦,控江,1571,121.52692259569257,31.29044904430266
上海大花园,杨浦,江浦路,1567,121.51711309952361,31.27041724654114
华升新苑,杨浦,控江,1566,121.52972701566416,31.28051623791953
葑润华庭,宝山,上大,1559,121.38737245166742,31.328985229549527
真北二街坊,普陀,真如,1558,121.40273275724363,31.264340242645098
玉树南苑,松江,松江老城,1555,121.2183294106303,31.01807787662798
莱阳北小区,浦东,金桥,1554,121.58940836764444,31.28270655165685
金地湾流域(公寓),浦东,三林,1551,121.52292396837602,31.152719820654973
欧风花都,闵行,古美罗阳,1542,121.39201546779664,31.15690656956623
林绿家园,杨浦,五角场,1539,121.51897932922058,31.29606705478841
柳营路1025弄,静安,大宁,1538,121.45655976238481,31.268273869351653
陈家宅小区(浦东大道),浦东,金桥,1538,121.56868841207348,31.265697229843504
上南七村,浦东,南码头,1530,121.52337985842233,31.19244625483946
精文城上城,静安,西藏北路,1526,121.47148097622774,31.255749906019755
曹杨九村,普陀,长征,1520,121.40989719283846,31.238149501607726
崂山二村,浦东,梅园,1515,121.63840428575297,31.325122795791554
真西新村第二小区,普陀,真如,1509,121.40155418041454,31.25221337344918
瑞和明庭(西区),青浦,徐泾,1501,121.2384415726932,31.187020579088397
闵浦新苑六村,闵行,浦江镇,1500,121.54246175389582,31.0652333268748
花园浜小区,松江,松江老城,1500,121.20931572331264,31.01543811183861
馨佳园二街坊,宝山,顾村,1500,121.37234595641871,31.370982077808964
高乐小区,松江,松江老城,1498,121.24378496335821,31.02211482995427
中环和乐苑,杨浦,黄兴公园,1492,121.56192327327784,31.290351839909505
景江苑A区,闵行,浦江镇,1492,121.49872487556492,31.08577923678215
天居玲珑湾(公寓),嘉定,嘉定北部,1489,121.21327401671181,31.408323920428682
祥东小区(虹口),虹口,曲阳,1480,121.48916304222506,31.287376642201416
申江豪城,浦东,三林,1478,121.50640700462513,31.16982862617454
香樟苑(普陀),普陀,桃浦,1477,121.38373521265751,31.2661083733969
龙南五村,徐汇,植物园,1476,121.46045301846506,31.161427921589443
馨佳园十街坊,宝山,顾村,1474,121.3713422796724,31.364615927137223
光明D9空间,嘉定,嘉定新城,1473,121.29248722539552,31.3646368171546
美罗家园宝欣苑一村,宝山,罗店,1468,121.34579303367981,31.394923873357317
三辰苑,松江,松江老城,1458,121.1952584997092,31.01594335420491
启航城,青浦,白鹤,1455,121.12925505321083,31.290882682668023
兰花新村,杨浦,黄兴公园,1451,121.53481142485064,31.309075780375583
永康城永锦苑,闵行,浦江镇,1444,121.50936000432809,31.035211881934686
兰棠佳苑,嘉定,安亭,1443,121.15472857204891,31.316637156439565
天乐小区,松江,松江新城,1443,121.24247746743556,31.028877520880314
建设花园,松江,松江新城,1435,121.24354700222861,31.036300822806446
北茶园,杨浦,五角场,1434,121.52349052966115,31.298393541119758
禹洲雍锦府,奉贤,上海奉贤大叶公路与金建路交叉口西约150米,1433,121.51645697717913,30.982599837998617
高行绿洲三期,浦东,高行,1428,121.59760594440628,31.334018815662944
兰桥公寓,松江,松江新城,1422,121.21480041743436,31.035758713301643
海波花苑,徐汇,龙华,1417,121.45622002324095,31.176083861286717
文翔名苑(公寓),松江,松江大学城,1416,121.19853219447921,31.05233666408143
古美西路316弄,闵行,古美罗阳,1412,121.40266951653572,31.140384002327078
新月明珠园,宝山,月浦,1408,121.40565368743987,31.45222969338344
浦航新城中城苑,闵行,浦江镇,1406,121.55066948150994,31.060900092329348
九峰小区,松江,松江老城,1404,121.25695600857607,31.016892862095013
华润置地橡树湾,杨浦,新江湾城,1404,121.52718930259847,31.342775972053747
嘉富小区,嘉定,嘉定城区,1398,121.26231871280952,31.401507555195458
嘉秀新苑,嘉定,丰庄,1397,121.37354276884966,31.26138304578088
好日子大家园A区,宝山,顾村,1388,121.3715974882678,31.35843875147573
华浜二村,宝山,淞南,1387,121.50627603168178,31.352021322530206
尚海湾豪庭,徐汇,徐汇滨江,1384,121.46552844459644,31.185112551588933
远香舫嘉苑,嘉定,嘉定城区,1384,121.2691547279099,31.36581944658075
融创精彩天地,浦东,金桥,1381,121.6042870018062,31.282420854765352
灵新小区,虹口,江湾凉城,1376,121.48592536950599,31.293964843729903
巴林小区,虹口,曲阳,1374,121.50259640394353,31.292915387253956
玉兰二村,嘉定,安亭,1374,121.17049024052699,31.300022409592273
南山雨果(公寓),青浦,沪青平,1373,121.27702298587181,31.1663688765891
周家湾小区,徐汇,龙华,1372,121.45723690507825,31.177387442968417
永乐苑,静安,大宁,1370,121.45323953538939,31.271906709242238
泰顺佳苑,奉贤,奉城,1365,121.66403509788586,30.915598585107194
绿洲丰怡园,嘉定,嘉定北部,1364,121.2395444223678,31.37559325485017
风荷丽景尚城(西区),嘉定,嘉定新城,1360,121.26619418244067,31.34874818096869
思浦小区,浦东,三林,1355,121.54796162938067,31.19831610934011
延吉五村,杨浦,黄兴公园,1354,121.54406612753664,31.296850579342138
明日星城,黄浦,董家渡,1353,121.50100306816879,31.220242372528652
徐汇苑,徐汇,龙华,1352,121.45076712913428,31.18404410101073
江南星城二期(顾戴路1325弄),闵行,古美罗阳,1350,121.39154463160851,31.141337973650376
练祁佳城星怡苑,嘉定,嘉定北部,1345,121.2255390309923,31.37638088963598
宝钢一村,宝山,淞宝,1345,121.49396035297055,31.41068065686441
金鹏花园,杨浦,控江,1344,121.53284440527545,31.27264305971722
丰水宝邸东苑,宝山,顾村,1341,121.40197916875131,31.36287540992189
中怡家园,宝山,顾村,1340,121.38273207489452,31.361952989667753
玉兰三村,嘉定,安亭,1338,121.16672310654035,31.305495140763924
爱法新城,浦东,金桥,1336,121.60684214199877,31.262268107936638
美罗家园宝欣苑二村,宝山,罗店,1335,121.3458891228331,31.392999237486997
古美八村,闵行,古美罗阳,1334,121.40853185829384,31.144721843328014
南部阳光翠庭,松江,松江新城,1320,121.22121773233656,31.044093457161477
佳欣苑,宝山,罗店,1320,121.34264348473128,31.400496981583245
嘉房景河名苑,嘉定,嘉定城区,1320,121.25192244348146,31.37710446878399
瑞和城二街区(汇延路59弄),闵行,浦江镇,1319,121.5222887765499,31.02735360596964
盛桥三村,宝山,月浦,1318,121.40761558667367,31.45523589651462
南新西园,浦东,外高桥,1314,121.5881132805907,31.334801250317916
招商花园城,宝山,杨行,1313,121.45443796477025,31.37572991023337
杏园,普陀,曹杨,1309,121.40880700927156,31.244239863192675
松云水苑,松江,松江大学城,1307,121.24416153302799,31.049891528903828
月浦九村,宝山,月浦,1307,121.42977588529932,31.421563568792767
绿地香颂(别墅),浦东,三林,1304,121.54796162938067,31.19831610934011
白洋苑,松江,松江老城,1303,121.22258459400054,31.02457817016534
保利林语溪(公寓),浦东,三林,1303,121.5437560324746,31.137587866279553
延吉东路131弄,杨浦,黄兴公园,1302,121.55148738867678,31.300192808141528
东方慧谷,嘉定,马陆,1295,121.29780447537019,31.338559112140857
和源馨苑,静安,西藏北路,1293,121.47391798924578,31.25465185414457
美罗家园宝欣苑九村,宝山,罗店,1292,121.3498739457811,31.39276185757175
珠江悦公馆,青浦,沪青平,1284,121.10646270682834,31.175868977503814
殷高小区,宝山,高境,1275,121.49601576580793,31.32863991045719
大华阳城花园,静安,阳城,1274,121.42973240731263,31.289727029254884
晶波坊,浦东,金桥,1268,121.58637308315677,31.291281449207126
三江小区,徐汇,龙华,1267,121.44639804062538,31.171070885220864
美罗家园美文苑,宝山,罗店,1260,121.34988795934706,31.393353920144143
嘉实上城名都(公寓),嘉定,安亭,1257,121.22697012150024,31.29329863096863
爱博五村,闵行,华漕,1253,121.31549471594762,31.22045854423003
西上海御庭,嘉定,安亭,1252,121.21149492264931,31.293619472098847
高行银杏苑,浦东,高行,1252,121.615229710376,31.296319847666574
平阳绿家园,闵行,古美罗阳,1252,121.39771904470079,31.13607285213692
辰丰苑,松江,松江老城,1250,121.19065252803733,31.01620425318541
三林新村,浦东,三林,1248,121.51129010354683,31.142440986081276
绿地海珀佘山,松江,佘山,1246,121.18228329306949,31.09481780933093
星辰园(公寓),松江,松江大学城,1245,121.23563805102712,31.056637346200752
桃浦五村山茶苑,普陀,桃浦,1244,121.35431732415566,31.29235098989503
伟业金锦苑二村,浦东,金桥,1236,121.59210400281879,31.288212777614163
辽源四村,杨浦,江浦路,1232,121.52225167653233,31.304744779497238
密山二村,宝山,淞宝,1230,121.49349440190251,31.409215678063962
万源城朗郡,闵行,古美罗阳,1220,121.40215909934496,31.155959118149156
开鲁路382弄,杨浦,中原,1218,121.53941748635306,31.33159651917706
宝地东花园,杨浦,江浦路,1214,121.5195960159532,31.26828089133222
和平花苑,杨浦,鞍山,1214,121.51347154864727,31.277403001490022
明月坊,杨浦,东外滩,1212,121.5617898749096,31.280250363094595
尚东国际名园,浦东,三林,1208,121.51693478587988,31.169245881899776
同方锦城二期(张扬北路555弄),浦东,金桥,1200,121.59328500507274,31.271819902374975
世和园,杨浦,中原,1200,121.53071254663917,31.323168845839767
中核・锦悦府,青浦,徐泾,1200,121.2938489667181,31.185369892354384
鞍山八村,杨浦,鞍山,1200,121.51771451506254,31.285927544242895
振兴小区(徐汇),徐汇,大木桥,1197,121.44447027700097,31.199720618866543
崧泽华城秀景苑,青浦,青浦城区,1195,121.1662733249715,31.17090140998398
环球翡翠湾花园(公寓),浦东,御桥,1194,121.53908152009234,31.15974820027269
绿洲公寓,普陀,真如,1194,121.40055876807892,31.257910239896198
荣域飘鹰锦和花园(公寓),宝山,杨行,1192,121.43556726092214,31.373597970904044
安图新村,杨浦,黄兴公园,1192,121.54711785101514,31.29681848867539
控江七村,杨浦,控江,1191,121.53858996731726,31.28914186818196
绿地香颂(公寓),浦东,三林,1189,121.54796162938067,31.19831610934011
汇秀景苑三街坊,闵行,浦江镇,1186,121.54975842006172,31.04555604167641
瑞和华苑,闵行,浦江镇,1186,121.54295339650143,31.045163113061776
洛川中路1100弄,静安,大宁,1185,121.4560534773994,31.27070760991036
翔殷路491弄,杨浦,黄兴公园,1180,121.54282853203554,31.31156923495792
罗阳三村,闵行,梅陇春申,1180,121.41445806957373,31.129032344359413
长阳新苑,杨浦,东外滩,1175,121.5617898749096,31.280250363094595
徐家汇花园,徐汇,大木桥,1172,121.45332415576843,31.199929888056836
昆仑花苑,普陀,桃浦,1170,121.38652606821591,31.265616667719033
东荷小区,浦东,金桥,1166,121.59917905701536,31.278806786917862
控江路1200弄,杨浦,控江,1165,121.53334305466404,31.28526366578687
月浦五村,宝山,月浦,1156,121.43197475752663,31.42417033531704
誉品谷水湾,松江,松江大学城,1155,121.23164211862708,31.063627208242604
大名城紫金九号,浦东,唐镇,1152,121.6731544259315,31.234965071994928
同康苑,浦东,三林,1152,121.5109772237377,31.12600132008521
水电新村,杨浦,新江湾城,1151,121.53366509718937,31.34198998049357
南园新村,黄浦,斜土路,1150,121.48075328570175,31.203527777813605
庆安一村,宝山,月浦,1146,121.44263836257448,31.413692289173817
东方丽都,宝山,杨行,1146,121.44026297331445,31.389983898648687
唐家沙小区,静安,闸北公园,1146,121.47225342913578,31.27690001310791
德都路165弄,宝山,月浦,1145,121.4332080411613,31.415744571785062
俞一小区,徐汇,龙华,1145,121.45827157336463,31.175754352020665
首创锦悦,松江,松江大学城,1143,121.19643590874114,31.057441821956246
长白新城,杨浦,黄兴公园,1141,121.54872950093059,31.2993289328839
闵浦新苑二村(鹤坡南路56弄),闵行,浦江镇,1140,121.53705242760638,31.06530470413392
延吉东路82弄,杨浦,黄兴公园,1139,121.5468752186969,31.299427439288777
铁岭路50弄,杨浦,鞍山,1139,121.52170038644087,31.285386875195826
梅川四街坊,普陀,长征,1134,121.39688558860219,31.251703610846153
地杰国际城三期,浦东,御桥,1129,121.5812060002732,31.166768815974216
永康城浦晨雅苑,闵行,浦江镇,1128,121.51264494169699,31.034704950914794
盛源家豪城,静安,大宁,1127,121.4619154598353,31.270971274191673
茸南苑,松江,松江老城,1127,121.25591918435646,31.006542927246564
延吉三村,杨浦,黄兴公园,1126,121.54294162869925,31.292363024472397
滨江公园壹号,嘉定,宝山,1123,121.38750055003314,31.331571534795874
黄兴绿园,杨浦,黄兴公园,1123,121.54429896832482,31.306182863778865
中原路99弄,杨浦,中原,1122,121.53725903787368,31.31834090156936
博三小区,浦东,金桥,1116,121.58940908628885,31.27201836204534
曹杨花苑,普陀,真如,1114,121.40896223646368,31.263110332986436
御上海青橙,松江,松江大学城,1114,121.24097398575638,31.057300834248334
绿地天呈,嘉定,嘉定新城,1100,121.24663196301098,31.40409785599697
正荣Z园,金山,枫泾,1100,121.02552717699037,30.903882100955013
书香名第黎金苑,普陀,长风,1100,121.41409838804752,31.228971452056488
樱花苑,普陀,真如,1097,121.39957997439527,31.254448881377566
新城昱翠湾,宝山,月浦,1096,121.41883542249329,31.435399825937438
六荷苑,浦东,金桥,1094,121.59551415019575,31.27550453215429
梅林小区,杨浦,中原,1090,121.54725996294682,31.314640840570963
绿洲雅宾利花园一期,静安,西藏北路,1090,121.47845928292091,31.26152226092611
祥和星宇花园(二期),普陀,桃浦,1088,121.40068992068338,31.286903564299394
嘉宝梦之湾,嘉定,嘉定城区,1088,121.23265046656203,31.387497243684184
金华新村(青浦),青浦,朱家角,1088,121.05304523916917,31.10958861294073
绿中海明苑(公寓),青浦,徐泾,1085,121.26987588757332,31.180735410611874
阳光威尼斯C区,普陀,真光,1081,121.37382492661034,31.268569718053826
寿一小区,浦东,金桥,1080,121.58957799109862,31.279647069122593
茸联苑,松江,松江老城,1076,121.26460229524645,31.011989160789668
美罗家园宝欣苑五村,宝山,罗店,1072,121.3443234058655,31.390352725869338
月浦三村,宝山,月浦,1071,121.43554210836787,31.424341585252236
海上硕和城,杨浦,黄兴公园,1069,121.53521575216068,31.306542304252492
文化佳园,杨浦,黄兴公园,1068,121.53161588266,31.29566854012086
翔顺公寓,杨浦,黄兴公园,1068,121.54690540176203,31.311341396075832
嘉秀坊,嘉定,丰庄,1068,121.3758477309577,31.260692986273217
金硕河畔景园(浦连路388弄),闵行,浦江镇,1065,121.54273699470409,31.061015863345588
通阁小区,静安,西藏北路,1064,121.47737197393164,31.26726084666834
广杭苑,杨浦,东外滩,1064,121.54256559801279,31.263954788322973
绿洲紫荆花园,虹口,四平路,1061,121.49596330476614,31.274230016846264
东安四村,徐汇,大木桥,1059,121.45823932419682,31.193080365113772
公交新村,杨浦,鞍山,1058,121.51253237023658,31.28275006577048
叶城五街坊,嘉定,嘉定城区,1057,121.24128030793528,31.372640740460405
浦三小区(金桥),浦东,金桥,1056,121.59697731021042,31.27188533546996
香阁丽苑,杨浦,黄兴公园,1055,121.53208524728898,31.304816823079772
万科时一区一期,闵行,华漕,1050,121.31819295620795,31.207981840749582
阳光威尼斯一期,普陀,桃浦,1050,121.37865394754033,31.267663649507746
淞南新新五村,宝山,淞南,1048,121.4933395340326,31.344775848867712
四平路幸福村,虹口,曲阳,1047,121.50390998479907,31.279153910773882
凤凰小区,松江,松江老城,1040,121.2421398964778,31.0175700924501
东明花苑,松江,松江新城,1039,121.2390879933382,31.03286586279885
古美一村,闵行,古美罗阳,1032,121.40917450605568,31.14956802707004
绿地时代嘉苑,青浦,白鹤,1029,121.13876640178101,31.285515639269764
兴日家园,松江,松江老城,1028,121.21337813032042,31.01412137407426
大江苑,松江,松江新城,1027,121.24898534378603,31.032570662666718
新城家园,松江,佘山,1027,121.18709119584304,31.05444484034092
宝虹水岸景苑（东区）,宝山,杨行,1026,121.4416456451554,31.377405290456977
中海紫御豪庭(公寓),普陀,长风,1024,121.38801878248185,31.234964686034317
新月明月园,宝山,月浦,1021,121.40967001137498,31.451686062018073
保利象屿公园悦府,奉贤,南桥,1020,121.49576810297881,30.958026678600213
丽园新村,黄浦,斜土路,1020,121.49007383418163,31.21114479715297
金地天地云墅,宝山,顾村,1017,121.39798476347065,31.368894428589165
未来域,浦东,御桥,1016,121.56411783363872,31.162329302205315
锦龙苑,宝山,上大,1016,121.3856610000098,31.318779423298878
深城投十一街区,嘉定,嘉定新城,1013,121.28127098279795,31.3344838665588
新家坡园景苑,黄浦,打浦桥,1009,121.48789867721976,31.21583622124459
美罗家园罗秀苑,宝山,罗店,1008,121.35745797987964,31.39036089461278
美罗家园宝欣苑六村,宝山,罗店,1008,121.34503603162656,31.388810130576182
古美四村,闵行,古美罗阳,1004,121.40962150287746,31.14722949379337
连城新苑,浦东,高行,1004,121.58727507171935,31.29911741760523
玉兰一村,嘉定,安亭,1002,121.16793501050385,31.303418905388146
三迪曼哈顿,松江,松江新城,1000,121.25327196784909,31.06321687762026
乐莫苑,松江,松江老城,1000,121.25878388062776,31.015368708502823
上海庄园三期,嘉定,外冈,997,121.18196797985853,31.35822790992542
西镇小区(浦东),浦东,洋泾,996,121.54796162938067,31.19831610934011
辰富佳苑,松江,松江大学城,993,121.18686527200728,31.05714971498976
新城枫景,嘉定,嘉定城区,992,121.26657039278825,31.404358600366187
禄德华苑,宝山,杨行,992,121.45722810168424,31.376989319262027
紫薇园,徐汇,康健,992,121.42832485240903,31.17037034954408
五丰苑,松江,松江老城,988,121.25695600857607,31.016892862095013
延吉一村,杨浦,黄兴公园,987,121.54433543952854,31.291049549198394
红梅小区(嘉定),嘉定,安亭,984,121.16461181910024,31.300062907238548
澳丽映象,嘉定,安亭,982,121.15640085758629,31.310442067227672
沁乐佳苑,嘉定,安亭,982,121.1673890204149,31.31400871124624
东方名城,杨浦,中原,982,121.52821462850757,31.324393183007867
新汇绿苑一村,闵行,浦江镇,982,121.52759021634759,31.02990298937489
绿地清猗园(威廉公馆二期),嘉定,南翔,979,121.32419597260893,31.30268488029616
中信泰富朱家角新城(别墅),青浦,朱家角,979,121.05226200659502,31.12646184176374
虹二小区,徐汇,徐家汇,978,121.4318312981367,31.201861397446176
江南名庐,普陀,武宁,977,121.42299700242936,31.242291861294696
农房松江府,松江,松江老城,977,121.19375725154093,31.020994778020135
金地格林春岸城,嘉定,嘉定城区,973,121.24517041994625,31.3814793513644
金江家园,普陀,长征,973,121.37101511680567,31.238989628293886
中冶尚园,宝山,月浦,968,121.41996126878895,31.432330124582947
绿洲雅宾利花园三期,静安,西藏北路,966,121.4798169818687,31.26406483009942
爱德佳苑二期,嘉定,江桥,960,121.3501894306762,31.263351022441224
杨浦欣园,杨浦,黄兴公园,954,121.54603206914523,31.30670112096482
南方城,闵行,古美罗阳,954,121.405966567249,31.13941572620398
南苑二村,嘉定,嘉定城区,953,121.25408412586066,31.37758934382183
宛南六村,徐汇,龙华,952,121.4515517091667,31.185710489339918
盛桥二村,宝山,月浦,948,121.40909446703475,31.458114324017572
城市庭园,杨浦,中原,947,121.52848501846607,31.32143457202249
珠江香樟园,杨浦,东外滩,945,121.548671200903,31.278243315506526
龙湖春江天越,奉贤,奉贤金汇,941,121.51033700140074,30.96270983729479
松江颐景园(公寓),松江,松江老城,941,121.24253479157997,31.02041892518604
乐业一村,宝山,月浦,938,121.4408977159878,31.41728417771543
宝钢七村,宝山,淞宝,938,121.4965630135246,31.41027947347614
中冶锦园,宝山,月浦,937,121.41629187044178,31.434963625190296
月浦十村,宝山,月浦,934,121.43659492242556,31.42204474528219
翰城国际,浦东,三林,933,121.516503419574,31.160623021860435
万科有山,青浦,赵巷,932,121.23807704031726,31.13168986807974
四元路20弄,宝山,月浦,928,121.4420038893928,31.417376627219316
金地世家,嘉定,嘉定新城,928,121.26648074189835,31.331942598434967
南苑七村,嘉定,嘉定城区,928,121.25718193241181,31.372756049520923
鼎信公寓,松江,松江新城,928,121.23948603250966,31.036197785109668
住友嘉馨名苑,嘉定,嘉定城区,926,121.25947863010917,31.406436978054668
荣都公寓,松江,松江老城,926,121.25105099730621,31.020275870510883
锦绣逸庭,青浦,徐泾,922,121.26767000856302,31.17585685069046
新月明星园,宝山,月浦,922,121.40701300333757,31.449935930905927
万科金色华亭,松江,松江老城,922,121.19603508482258,31.02117032616967
怡佳苑,杨浦,黄兴公园,921,121.54541448410711,31.302331981561746
东波苑二街坊,浦东,金桥,920,121.5821495201405,31.290755237479512
圣骊河滨苑,杨浦,东外滩,919,121.53863119954018,31.263405272014694
博雅苑(召楼路2056弄),闵行,浦江镇,918,121.54568397576011,31.062475865171013
西上海名邸,嘉定,安亭,912,121.17446829664739,31.293254967483577
新华御湖上园,金山,亭林,911,121.32041778946451,30.89085570748157
闵浦新苑一村,闵行,浦江镇,911,121.536889654648,31.063011479637705
九龙仓兰廷,浦东,周浦,910,121.59834659729927,31.11752350025074
石泉五村,普陀,光新,910,121.45046799339944,31.26748917898916
紫荆四村,嘉定,安亭,907,121.17141765113549,31.29850577936977
中冶祥腾宝月花园,宝山,月浦,905,121.41840621212063,31.430301625754403
金地双都汇,松江,松江,903,121.35279442682459,31.079804920087252
海华花园,黄浦,打浦桥,902,121.47554266459112,31.210392210997142
绿洲花园,宝山,顾村,899,121.37274695999837,31.356143906314838
东鼎名人府邸,松江,松江新城,898,121.21458141055103,31.044166784166556
浦江世博家园二街坊,闵行,浦江镇,898,121.50841669371206,31.088484680328182
东陆新村四街坊,浦东,金桥,896,121.60067796958931,31.28241769149485
美罗家园美安苑,宝山,罗店,896,121.35256014874759,31.394245050818952
佳泰花园,杨浦,黄兴公园,890,121.53677637832317,31.305405973972146
崧泽华城德康雅苑,青浦,赵巷,888,121.16530037027366,31.15028401594472
波恩风情,嘉定,安亭,887,121.18230798849405,31.27276188760581
富锦苑,宝山,月浦,887,121.43972749339996,31.409699229947368
明珠苑,浦东,洋泾,887,121.50732749828121,31.245316811876663
宝华盛世花园,宝山,月浦,886,121.41209489726863,31.453088068423256
万科金色雅筑,浦东,三林,885,121.52472767600949,31.14966954994268
柳营路309弄,静安,闸北公园,885,121.4697421262521,31.275963933638003
海伦堡海伦广场,嘉定,嘉定新城,883,121.26639666050262,31.328075351856377
东沟七村,浦东,高行,882,121.58315400536176,31.301202850916855
中轩丽苑,杨浦,东外滩,881,121.56022044535312,31.284518233822478
绿地林肯公园,松江,松江大学城,880,121.2616228853615,31.06192215137384
大宁新村,静安,大宁,879,121.46125215104674,31.283867769749634
兰花教师公寓,杨浦,黄兴公园,878,121.54200397740794,31.309598880709366
崂山五村,浦东,陆家嘴,878,121.52356526867958,31.242727884421647
月浦四村,宝山,月浦,877,121.42953900213632,31.425320315326122
禄德嘉苑,宝山,杨行,876,121.44889685706251,31.373632270386913
南苑一村,嘉定,嘉定城区,876,121.25632243369986,31.378486251930312
金藤苑,浦东,金桥,876,121.59814465822062,31.27449930382777
安亭中央公园,嘉定,安亭,874,121.16195903309873,31.298143839456625
黑山小区,杨浦,中原,873,121.52989790911575,31.31332017448209
月浦六村,宝山,月浦,872,121.42834299818036,31.424595878882815
朱家角1号,青浦,朱家角,866,121.0427079885131,31.117090836177066
宝林五村,宝山,淞宝,865,121.49739592239345,31.41051747166602
绿地嘉尚国际广场,嘉定,叶城路515,860,121.26692935567004,31.37351919766182
金地艺境(松江),松江,松江老城,860,121.19380353167486,31.02448926016052
颂和苑,闵行,浦江镇,860,121.50674288105533,31.03954126996708
恒大华城新华苑,浦东,三林,860,121.49126597542391,31.167471826602565
同济城市雅筑,松江,松江老城,859,121.25374815959992,31.01944430772528
博二小区,浦东,金桥,857,121.60283686722144,31.274353317973127
怡华家园,嘉定,嘉定城区,852,121.25013104263346,31.410750615303602
金沙江小区,普陀,长风,850,121.41494908336547,31.2367807674756
中星海上名庭,普陀,长征,850,121.39681175613572,31.246087023642975
龙兆苑,徐汇,龙华,850,121.45336529816079,31.176368183752288
宏翔公寓,杨浦,黄兴公园,848,121.54814443455194,31.312736495571702
共富鑫鑫花园,宝山,共富,846,121.43395866524541,31.35141696994387
日月华庭,闵行,颛桥,844,121.40748694932464,31.074013019743116
民庆家园,杨浦,中原,839,121.52617278008339,31.32703776119146
时运苑,杨浦,黄兴公园,839,121.53435751107645,31.294540717418045
玉兰四村,嘉定,安亭,838,121.17260071949214,31.303345009470704
新高苑(四期),浦东,高行,837,121.62647002756124,31.296012901327227
花苑二村,闵行,浦江镇,836,121.5407175140871,31.072272039662757
大名城名郡,嘉定,安亭,832,121.16266869445161,31.295503147548555
嘉乐东润舒庭,嘉定,嘉定城区,831,121.28444900803113,31.385770333006136
鸿发家园,闵行,古美罗阳,830,121.39182587096859,31.135750875363335
步阳御江金都,嘉定,嘉定城区,829,121.253299994981,31.40459792360253
东五小区(浦东),浦东,金桥,828,121.63337305625268,31.321683748620377
高行绿洲五期,浦东,高行,826,121.60179797689915,31.33191491522612
华龙新苑,徐汇,徐汇滨江,826,121.46271998225004,31.180820834512843
控江六村,杨浦,控江,825,121.53662303757261,31.29061190000752
环城新村(松江),松江,松江老城,825,121.27292626359355,31.006505939603553
御沁园(公寓),浦东,周浦,824,121.58151387916165,31.107507643370113
康强坊,徐汇,康健,824,121.44339635276381,31.194556772822725
阳光美林,宝山,月浦,819,121.41687891309255,31.432251015962002
洛川东路400弄,静安,闸北公园,816,121.46711063009116,31.274956318323543
控江路1039弄,杨浦,控江,815,121.53719022767162,31.285488482331854
海德名园(公寓),松江,松江新城,810,121.20485006696144,31.03313692625722
中山北路805弄,静安,闸北公园,807,121.46433019487667,31.26770616748392
恒大佘山首府,松江,佘山,807,121.22596833119552,31.134886153837634
柏林映像,嘉定,安亭,806,121.18076200471138,31.270754447605565
尚海湾豪庭(二期）,徐汇,徐汇滨江,806,121.46778876092064,31.18706120293102
沁乐小区,嘉定,安亭,805,121.16422312230608,31.31400639744143
方舟园三村,松江,松江老城,804,121.24392743461209,31.023941529765736
中房樱桃苑,浦东,三林,803,121.53109315868375,31.154010670311205
明丰公寓,松江,松江新城,802,121.23511281179543,31.033157890322133
人乐三村,松江,松江老城,801,121.19363382436386,31.008425331520485
新月时代家园,宝山,月浦,800,121.43182483033702,31.409202888097894
申汉小区,普陀,长征,800,121.39799976517266,31.237807319952335
锦灏佳园,静安,大宁,798,121.46609464655937,31.2781442466501
聚缘中庭,闵行,浦江镇,796,121.55196708381911,31.04784543706206
美罗家园罗智苑,宝山,罗店,796,121.3517780839706,31.39624397596643
天汇广场酒店式公寓,普陀,真如,795,121.40988398774746,31.26230584385584
恒大华城东林苑,浦东,三林,795,121.49439504300682,31.164371745485855
葛洲坝绿城玉兰花园,青浦,青浦城区,794,121.10124894164845,31.178354245975893
南苑十村,嘉定,嘉定城区,793,121.25518041790504,31.371773220186217
月浦七村,宝山,月浦,792,121.42973627002632,31.422753023910545
瑞和明庭北区,青浦,华新,792,121.24051872452394,31.18656583799063
岭南苑,浦东,三林,789,121.54796162938067,31.19831610934011
卢湾都市花园,黄浦,斜土路,787,121.48349985479851,31.206876973683272
虹祺花苑,虹口,四川北路,785,121.48556227441887,31.27041416002692
春江美庐(公寓),宝山,杨行,785,121.45831684796232,31.37444589665965
鞍山五村,杨浦,鞍山,785,121.51235773964545,31.280881332354
安信湖畔天地,松江,松江新城,784,121.22352583851388,31.039673466026816
聚缘南庭,闵行,浦江镇,783,121.55278445200264,31.045939454889137
蓬莱山庄,青浦,青浦城区,783,121.13620292829567,31.149587488240606
谈家港花苑一村(谈中路102弄),闵行,浦江镇,782,121.53898486241944,31.0720992930925
汇秀景苑二街坊,闵行,浦江镇,780,121.54985804214277,31.0460168798816
丝庐花语,徐汇,大木桥,779,121.47342796359007,31.20194278668469
上大东村,静安,新客站,779,121.4664831662077,31.28409863676372
名门世家(浦东),浦东,洋泾,777,121.55973077901965,31.251322659218847
锦城世纪飞凡,宝山,顾村,776,121.3973993377698,31.361108496120185
宝华城市花园,虹口,江湾凉城,776,121.47286939722397,31.284688352073935
海尚名都,松江,松江老城,776,121.2093070097492,31.021190983422727
新虹桥雅苑,青浦,徐泾,774,121.31683049624097,31.183203249491736
通源小区,静安,西藏北路,774,121.48653990030537,31.262864858428163
凤城四村,杨浦,控江,773,121.5277535282893,31.289302103160825
世纪非凡锦城,宝山,顾村,773,121.3973993377698,31.361108496120185
东旺公寓,普陀,长征,771,121.3874560839104,31.251029534353954
上河湾,普陀,长征,769,121.37526895271763,31.233524887483
金榜世家（六期）,闵行,闵行,768,121.44169388416128,31.02201494881672
中茂世纪财富广场,嘉定,嘉定北部,768,121.21093527831658,31.42321693809164
高尚领域,普陀,真如,763,121.41519198517537,31.261165888261143
百汇园,徐汇,徐汇滨江,761,121.46631859412301,31.179089015773126
方舟园四村,松江,松江老城,760,121.24483005198852,31.026298137664895
嘉福汇,嘉定,嘉定城区,758,121.24816195695558,31.369817859179268
富浩河滨花园,宝山,月浦,756,121.43129941144423,31.41221472240116
佘山珑原,松江,佘山,755,121.20458497700545,31.074269505182333
东安五村,徐汇,徐汇滨江,754,121.45909351613304,31.19072466528382
紫华欣苑,杨浦,周家嘴路,748,121.55492322759135,31.285748710278487
嘉华居(公寓),嘉定,嘉定城区,748,121.26332203023362,31.40694589380788
浣纱五村,杨浦,黄兴公园,746,121.5419560078937,31.307089021356223
杨泰苑,宝山,杨行,746,121.44409298868679,31.378326940964392
同济欣苑,杨浦,新江湾城,746,121.50098896477228,31.31397786051069
莱阳新家园,浦东,金桥,745,121.58703998516738,31.286014955197487
锋尚99,松江,松江新城,745,121.255811836848,31.040286485121293
荣乐四村,松江,松江老城,744,121.23074803515301,31.02233184476469
闵浦新苑三村东区,闵行,浦江镇,743,121.53704712760388,31.0678033380987
控江路1197弄,杨浦,控江,741,121.53427666358056,31.28379470702117
和亭佳苑,嘉定,安亭,740,121.16069969860429,31.310621933691017
古龙苑,闵行,古美罗阳,738,121.40686568123394,31.15147469172705
南龙潭苑,松江,松江老城,738,121.19363382436386,31.008425331520485
浦江世博家园十五街坊,闵行,浦江镇,737,121.50859554633911,31.077380601674516
建发玖珑湾,松江,泗泾,735,121.26453141480951,31.11994044911745
信义嘉庭,嘉定,马陆,735,121.2802850026702,31.378094872107354
中关村公寓,普陀,曹杨,734,121.42199700873564,31.246723857942126
路劲上海派,嘉定,安亭,734,121.20353925956128,31.29942990773298
人乐一村,松江,松江老城,733,121.3327414630948,31.072935649546864
月夏香樟林,松江,松江老城,732,121.24666591895927,31.016137945298176
幸福村小区(杨浦),杨浦,控江,729,121.54122694314182,31.281270034453957
瑞金南苑,徐汇,大木桥,728,121.47373320780237,31.205865756786938
双阳一村,杨浦,控江,726,121.53937769141896,31.283239212390153
金沙公寓,嘉定,嘉定城区,726,121.26291500800706,31.392846085888674
荣乐一村,松江,松江老城,726,121.23156315757277,31.020586350717473
文化花园香榭丽苑,杨浦,五角场,721,121.49974696757417,31.30880389353773
苗桐佳苑(南区),浦东,北蔡,720,121.57215299676437,31.202402858488856
南杨小区,浦东,三林,720,121.5117779732693,31.15571189465329
控江二村,杨浦,控江,719,121.53254086784362,31.285566404206357
太阳都市花园一期,黄浦,豫园,718,121.49508718740226,31.228487193598696
控江一村,杨浦,控江,716,121.53552530823943,31.287255055546154
东兰世茗雅苑,闵行,古美罗阳,716,121.38817391984342,31.154877896836897
中山文化苑二期,松江,松江新城,714,121.26504498020175,31.066968869314977
百鸟苑(松江),松江,佘山,714,121.24010900738084,31.095540826646474
金地天境,青浦,赵巷,713,121.23085457418648,31.12862585383194
西郊庄园马德里洋房,闵行,华漕,712,121.29684230033845,31.206330056187653
盛桥一村,宝山,月浦,708,121.4109950120022,31.458104929113517
馨佳园六街坊(菊泉街1346弄),宝山,顾村,707,121.37814227272183,31.36833782213538
浦发香舍(公寓),嘉定,嘉定城区,706,121.25967625732137,31.389486757929994
阳光名苑,徐汇,徐家汇,706,121.45598296041685,31.199559071998443
共富三村,宝山,共富,705,121.43269313244296,31.354600666685318
高景花园,青浦,沪青平,702,121.29436333645312,31.17237515454201
宛南五村,徐汇,龙华,700,121.4547047615067,31.18762584162753
保利天鹅语,嘉定,嘉定新城,700,121.24598697965483,31.356597899756014
中大丽都,浦东,金桥,700,121.59552906206721,31.278535043358897
中建锦绣天地,青浦,徐泾,700,121.29109997219646,31.188881843532922
仓城六村,松江,松江老城,700,121.22111676279722,31.00864733002658
馨浦苑北区,青浦,徐泾,699,121.24657698671378,31.186850823753257
延平小区,静安,闸北公园,699,121.46780780499746,31.278822526724994
东苑佳佳花园,闵行,古美罗阳,698,121.39798781770938,31.13213243364421
檀香花苑(公寓),松江,松江新城,698,121.22117703909694,31.045438859396807
红旗教师公寓,徐汇,大木桥,696,121.45587062989996,31.19746287969187
紫荆新苑,黄浦,黄浦滨江,694,121.48465444687048,31.19837611108485
龙湖好望山(公寓),松江,松江大学城,693,121.2300911941641,31.060783238473935
绿洲古猗新苑(二期),普陀,南翔,692,121.320817625247,31.293346074484877
联丰新苑,浦东,三林,691,121.51377328946808,31.160149457319136
桂巷新村,普陀,长征,690,121.40635634200979,31.245034242365755
新月鸿锦苑,宝山,月浦,690,121.42041149951054,31.42659199421431
双花公寓,杨浦,黄兴公园,689,121.53373785993567,31.294014061204738
雅戈尔长风8号,普陀,长风,688,121.39489800607726,31.236860273784618
浦煤新村,浦东,高行,686,121.58085649918945,31.298454635771556
南苑四村,嘉定,嘉定城区,684,121.25332101532993,31.374977879221802
俞三小区,徐汇,龙华,684,121.45433214438117,31.174406024498563
嘉丰佳苑,嘉定,嘉定城区,682,121.24266872893152,31.37805371470063
梅川一街坊,普陀,长征,682,121.40172404998648,31.246309464621877
东宸源著,浦东,临港新城,678,121.93099272086614,30.92518440463869
天虹四村,松江,松江新城,678,121.25487661098157,31.03617720849907
源昌幸福里,青浦,赵巷,678,121.16289668439005,31.164015929865652
荣和苑,静安,阳城,678,121.4469063917135,31.29451271453322
金梅园,普陀,曹杨,675,121.40986700977334,31.245650861811413
三湘未来海岸,杨浦,新江湾城,675,121.51159435962306,31.32207914447342
海上御景苑（潘沪路399弄）,宝山,罗泾,674,121.33399181453414,31.48464073513782
金色港湾公寓,徐汇,大木桥,674,121.46748953535527,31.2051604620577
合景理想家,嘉定,嘉定新城,673,121.26316087422512,31.341635765531336
金昊雅苑南区,奉贤,南桥,672,121.50972515589704,30.923467117750583
富天苑,杨浦,控江,672,121.53937077446655,31.280853402525867
嘉云苑,普陀,长征,672,121.37780325222236,31.249586973082973
瑞虹新城怡庭,虹口,临平,671,121.50753842041496,31.26990974507037
水仙小区,嘉定,安亭,670,121.16526686347812,31.30141227876285
祁连四村,宝山,上大,670,121.38863654718106,31.321711820470192
紫罗兰家苑,杨浦,控江,669,121.53389021255016,31.287551769910078
逸居苑,宝山,淞南,668,121.50053550015083,31.346494114160564
国浩长风汇都,普陀,长风,664,121.39572354884092,31.234848434625373
三湘世纪花城一二期,杨浦,五角场,664,121.4966357762709,31.305653110787883
延吉东路125弄,杨浦,黄兴公园,664,121.5517905667864,31.300961950459644
新湖云庭,徐汇,大木桥,663,121.46736772512811,31.19751044512522
碧云新天地二期,浦东,金桥,661,121.59921984008551,31.26539627902362
市光三村,杨浦,中原,660,121.54755658342621,31.325646962871275
市光一村,杨浦,中原,660,121.54272801164899,31.322038964866046
殷行路305弄,杨浦,中原,660,121.54645014052957,31.333060484262877
荣乐三村,松江,松江老城,658,121.22842304083208,31.02107686558245
凌兆九村,浦东,三林,656,121.50339426760578,31.15118473099968
汇翠花园,徐汇,万体馆,654,121.4443420888047,31.19104348974319
茸平苑,松江,松江新城,653,121.25026318337397,31.042678188378133
春雷路431弄,宝山,月浦,652,121.44165929939915,31.417766069744186
时尚谷创意园,松江,小昆山,652,121.17527623262305,31.036887717810263
芝巷小区,普陀,长征,650,121.40073789019762,31.242235824186714
民欣苑,杨浦,中原,650,121.54446056731472,31.316476860200744
芷江西路285弄,静安,新客站,649,121.46675184687047,31.263678757293864
乐业二村,宝山,月浦,648,121.43923594062488,31.418011906904844
阳光葡提公馆,嘉定,马陆,647,121.29549044037648,31.33706770597703
城市丽园,杨浦,控江,644,121.53584923720634,31.28839515566668
美罗家园宝欣苑八村,宝山,罗店,644,121.3470154478178,31.38941408623039
绿地曼哈顿(二期),崇明,崇明新城,642,121.43544311510065,31.633580865229668
民乐一村,松江,松江老城,638,121.22982197200277,31.023459617435933
王家堂小区,徐汇,万体馆,638,121.45078078337802,31.195784494920122
新上虹新村,闵行,金虹桥,637,121.39767394976418,31.178881708237302
仓城五村,松江,松江老城,636,121.21777039511146,31.008768349556934
徐汇御苑,徐汇,大木桥,633,121.46093388140454,31.198834733189866
开元地中海,松江,松江新城,632,121.22602510410375,31.044619507545242
宛南一村,徐汇,龙华,632,121.45705329143199,31.190362719439843
星风花苑,普陀,长风,630,121.40373706280378,31.233754614493524
爱建新村,普陀,长征,630,121.40457599031956,31.249453837394046
机场新村(龙华),徐汇,徐汇滨江,630,121.45808804954895,31.17374220397558
浦发御园,浦东,御桥,629,121.54088738365904,31.15334353781527
宝龙城市广场(青浦),青浦,赵巷,628,121.1593949996816,31.167929827458213
市光二村,杨浦,中原,620,121.54800097516201,31.322108912846982
浣沙六村,杨浦,黄兴公园,620,121.54039699868115,31.30452186056504
梅岭新村,普陀,长征,620,121.4001604594158,31.249102358264377
杨泰春城,宝山,杨行,619,121.44211797419256,31.387307892360568
新陆花苑,虹口,临平,619,121.51158645453457,31.269746698931357
宝业爱多邦,青浦,赵巷,617,121.16146316845723,31.149786988745138
宏苑小区,虹口,广中,617,121.47527299327702,31.28140983719551
上海之春,嘉定,嘉定城区,617,121.28008602799973,31.386907918211808
德邑小城,松江,松江新城,615,121.19056799748884,31.04555085936085
苏家巷小区,静安,不夜城,614,121.46455189667654,31.263921297321808
新浦江城三期(江栀路350弄),闵行,浦江镇,612,121.50333012859237,31.102548748866738
唐朝酒店,嘉定,安亭,611,121.17049024052699,31.300022409592273
复地新都国际,静安,不夜城,609,121.48224869488422,31.259779973070767
新城香溢澜庭,嘉定,嘉定新城,608,121.25056195978658,31.355695846769567
桃李家园,浦东,三林,607,121.51418174898345,31.166787408944785
盛世豪园二期,杨浦,中原,604,121.52342504318948,31.324745844037956
华师大三村,普陀,长风,600,121.40092904961014,31.236132132412642
风华水岸,普陀,长风,600,121.40844939384803,31.228263475071714
